{"MRData":{"xmlns":"","series":"f1","url":"https://api.jolpi.ca/ergast/f1/1963/races/","limit":"30","offset":"0","total":"10","RaceTable":{"season":"1963","Races":[{"season":"1963","round":"1","url":"https://en.wikipedia.org/wiki/1963_Monaco_Grand_Prix","raceName":"Monaco Grand Prix","Circuit":{"circuitId":"monaco","url":"https://en.wikipedia.org/wiki/Circuit_de_Monaco","circuitName":"Circuit de Monaco","Location":{"lat":"43.7347","long":"7.42056","locality":"Monte-Carlo","country":"Monaco"}},"date":"1963-05-26"},{"season":"1963","round":"2","url":"https://en.wikipedia.org/wiki/1963_Belgian_Grand_Prix","raceName":"Belgian Grand Prix","Circuit":{"circuitId":"spa","url":"https://en.wikipedia.org/wiki/Circuit_de_Spa-Francorchamps","circuitName":"Circuit de Spa-Francorchamps","Location":{"lat":"50.4372","long":"5.97139","locality":"Spa","country":"Belgium"}},"date":"1963-06-09"},{"season":"1963","round":"3","url":"https://en.wikipedia.org/wiki/1963_Dutch_Grand_Prix","raceName":"Dutch Grand Prix","Circuit":{"circuitId":"zandvoort","url":"https://en.wikipedia.org/wiki/Circuit_Zandvoort","circuitName":"Circuit Park Zandvoort","Location":{"lat":"52.3888","long":"4.54092","locality":"Zandvoort","country":"Netherlands"}},"date":"1963-06-23"},{"season":"1963","round":"4","url":"https://en.wikipedia.org/wiki/1963_French_Grand_Prix","raceName":"French Grand Prix","Circuit":{"circuitId":"reims","url":"https://en.wikipedia.org/wiki/Reims-Gueux","circuitName":"Reims-Gueux","Location":{"lat":"49.2542","long":"3.93083","locality":"Reims","country":"France"}},"date":"1963-06-30"},{"season":"1963","round":"5","url":"https://en.wikipedia.org/wiki/1963_British_Grand_Prix","raceName":"British Grand Prix","Circuit":{"circuitId":"silverstone","url":"https://en.wikipedia.org/wiki/Silverstone_Circuit","circuitName":"Silverstone Circuit","Location":{"lat":"52.0786","long":"-1.01694","locality":"Silverstone","country":"UK"}},"date":"1963-07-20"},{"season":"1963","round":"6","url":"https://en.wikipedia.org/wiki/1963_German_Grand_Prix","raceName":"German Grand Prix","Circuit":{"circuitId":"nurburgring","url":"https://en.wikipedia.org/wiki/N%C3%BCrburgring","circuitName":"Nürburgring","Location":{"lat":"50.3356","long":"6.9475","locality":"Nürburg","country":"Germany"}},"date":"1963-08-04"},{"season":"1963","round":"7","url":"https://en.wikipedia.org/wiki/1963_Italian_Grand_Prix","raceName":"Italian Grand Prix","Circuit":{"circuitId":"monza","url":"https://en.wikipedia.org/wiki/Monza_Circuit","circuitName":"Autodromo Nazionale di Monza","Location":{"lat":"45.6156","long":"9.28111","locality":"Monza","country":"Italy"}},"date":"1963-09-08"},{"season":"1963","round":"8","url":"https://en.wikipedia.org/wiki/1963_United_States_Grand_Prix","raceName":"United States Grand Prix","Circuit":{"circuitId":"watkins_glen","url":"https://en.wikipedia.org/wiki/Watkins_Glen_International","circuitName":"Watkins Glen","Location":{"lat":"42.3369","long":"-76.9272","locality":"New York State","country":"USA"}},"date":"1963-10-06"},{"season":"1963","round":"9","url":"https://en.wikipedia.org/wiki/1963_Mexican_Grand_Prix","raceName":"Mexican Grand Prix","Circuit":{"circuitId":"rodriguez","url":"https://en.wikipedia.org/wiki/Aut%C3%B3dromo_Hermanos_Rodr%C3%ADguez","circuitName":"Autódromo Hermanos Rodríguez","Location":{"lat":"19.4042","long":"-99.0907","locality":"Mexico City","country":"Mexico"}},"date":"1963-10-27"},{"season":"1963","round":"10","url":"https://en.wikipedia.org/wiki/1963_South_African_Grand_Prix","raceName":"South African Grand Prix","Circuit":{"circuitId":"george","url":"https://en.wikipedia.org/wiki/Prince_George_Circuit","circuitName":"Prince George Circuit","Location":{"lat":"-33.0486","long":"27.8736","locality":"Eastern Cape Province","country":"South Africa"}},"date":"1963-12-28"}]}}}