{"MRData":{"xmlns":"","series":"f1","url":"https://api.jolpi.ca/ergast/f1/1959/races/","limit":"30","offset":"0","total":"9","RaceTable":{"season":"1959","Races":[{"season":"1959","round":"1","url":"https://en.wikipedia.org/wiki/1959_Monaco_Grand_Prix","raceName":"Monaco Grand Prix","Circuit":{"circuitId":"monaco","url":"https://en.wikipedia.org/wiki/Circuit_de_Monaco","circuitName":"Circuit de Monaco","Location":{"lat":"43.7347","long":"7.42056","locality":"Monte-Carlo","country":"Monaco"}},"date":"1959-05-10"},{"season":"1959","round":"2","url":"https://en.wikipedia.org/wiki/1959_Indianapolis_500","raceName":"Indianapolis 500","Circuit":{"circuitId":"indianapolis","url":"https://en.wikipedia.org/wiki/Indianapolis_Motor_Speedway","circuitName":"Indianapolis Motor Speedway","Location":{"lat":"39.795","long":"-86.2347","locality":"Indianapolis","country":"USA"}},"date":"1959-05-30"},{"season":"1959","round":"3","url":"https://en.wikipedia.org/wiki/1959_Dutch_Grand_Prix","raceName":"Dutch Grand Prix","Circuit":{"circuitId":"zandvoort","url":"https://en.wikipedia.org/wiki/Circuit_Zandvoort","circuitName":"Circuit Park Zandvoort","Location":{"lat":"52.3888","long":"4.54092","locality":"Zandvoort","country":"Netherlands"}},"date":"1959-05-31"},{"season":"1959","round":"4","url":"https://en.wikipedia.org/wiki/1959_French_Grand_Prix","raceName":"French Grand Prix","Circuit":{"circuitId":"reims","url":"https://en.wikipedia.org/wiki/Reims-Gueux","circuitName":"Reims-Gueux","Location":{"lat":"49.2542","long":"3.93083","locality":"Reims","country":"France"}},"date":"1959-07-05"},{"season":"1959","round":"5","url":"https://en.wikipedia.org/wiki/1959_British_Grand_Prix","raceName":"British Grand Prix","Circuit":{"circuitId":"aintree","url":"https://en.wikipedia.org/wiki/Aintree_Motor_Racing_Circuit","circuitName":"Aintree","Location":{"lat":"53.4769","long":"-2.94056","locality":"Liverpool","country":"UK"}},"date":"1959-07-18"},{"season":"1959","round":"6","url":"https://en.wikipedia.org/wiki/1959_German_Grand_Prix","raceName":"German Grand Prix","Circuit":{"circuitId":"avus","url":"https://en.wikipedia.org/wiki/AVUS","circuitName":"AVUS","Location":{"lat":"52.4806","long":"13.2514","locality":"Berlin","country":"Germany"}},"date":"1959-08-02"},{"season":"1959","round":"7","url":"https://en.wikipedia.org/wiki/1959_Portuguese_Grand_Prix","raceName":"Portuguese Grand Prix","Circuit":{"circuitId":"monsanto","url":"https://en.wikipedia.org/wiki/Circuito_de_Monsanto","circuitName":"Monsanto Park Circuit","Location":{"lat":"38.7197","long":"-9.20306","locality":"Lisbon","country":"Portugal"}},"date":"1959-08-23"},{"season":"1959","round":"8","url":"https://en.wikipedia.org/wiki/1959_Italian_Grand_Prix","raceName":"Italian Grand Prix","Circuit":{"circuitId":"monza","url":"https://en.wikipedia.org/wiki/Monza_Circuit","circuitName":"Autodromo Nazionale di Monza","Location":{"lat":"45.6156","long":"9.28111","locality":"Monza","country":"Italy"}},"date":"1959-09-13"},{"season":"1959","round":"9","url":"https://en.wikipedia.org/wiki/1959_United_States_Grand_Prix","raceName":"United States Grand Prix","Circuit":{"circuitId":"sebring","url":"https://en.wikipedia.org/wiki/Sebring_International_Raceway","circuitName":"Sebring International Raceway","Location":{"lat":"27.4547","long":"-81.3483","locality":"Florida","country":"USA"}},"date":"1959-12-12"}]}}}