{"MRData":{"xmlns":"","series":"f1","url":"https://api.jolpi.ca/ergast/f1/1960/races/","limit":"30","offset":"0","total":"10","RaceTable":{"season":"1960","Races":[{"season":"1960","round":"1","url":"https://en.wikipedia.org/wiki/1960_Argentine_Grand_Prix","raceName":"Argentine Grand Prix","Circuit":{"circuitId":"galvez","url":"https://en.wikipedia.org/wiki/Aut칩dromo_Oscar_y_Juan_G치lvez","circuitName":"Aut칩dromo Juan y Oscar G치lvez","Location":{"lat":"-34.6943","long":"-58.4593","locality":"Buenos Aires","country":"Argentina"}},"date":"1960-02-07"},{"season":"1960","round":"2","url":"https://en.wikipedia.org/wiki/1960_Monaco_Grand_Prix","raceName":"Monaco Grand Prix","Circuit":{"circuitId":"monaco","url":"https://en.wikipedia.org/wiki/Circuit_de_Monaco","circuitName":"Circuit de Monaco","Location":{"lat":"43.7347","long":"7.42056","locality":"Monte-Carlo","country":"Monaco"}},"date":"1960-05-29"},{"season":"1960","round":"3","url":"https://en.wikipedia.org/wiki/1960_Indianapolis_500","raceName":"Indianapolis 500","Circuit":{"circuitId":"indianapolis","url":"https://en.wikipedia.org/wiki/Indianapolis_Motor_Speedway","circuitName":"Indianapolis Motor Speedway","Location":{"lat":"39.795","long":"-86.2347","locality":"Indianapolis","country":"USA"}},"date":"1960-05-30"},{"season":"1960","round":"4","url":"https://en.wikipedia.org/wiki/1960_Dutch_Grand_Prix","raceName":"Dutch Grand Prix","Circuit":{"circuitId":"zandvoort","url":"https://en.wikipedia.org/wiki/Circuit_Zandvoort","circuitName":"Circuit Park Zandvoort","Location":{"lat":"52.3888","long":"4.54092","locality":"Zandvoort","country":"Netherlands"}},"date":"1960-06-06"},{"season":"1960","round":"5","url":"https://en.wikipedia.org/wiki/1960_Belgian_Grand_Prix","raceName":"Belgian Grand Prix","Circuit":{"circuitId":"spa","url":"https://en.wikipedia.org/wiki/Circuit_de_Spa-Francorchamps","circuitName":"Circuit de Spa-Francorchamps","Location":{"lat":"50.4372","long":"5.97139","locality":"Spa","country":"Belgium"}},"date":"1960-06-19"},{"season":"1960","round":"6","url":"https://en.wikipedia.org/wiki/1960_French_Grand_Prix","raceName":"French Grand Prix","Circuit":{"circuitId":"reims","url":"https://en.wikipedia.org/wiki/Reims-Gueux","circuitName":"Reims-Gueux","Location":{"lat":"49.2542","long":"3.93083","locality":"Reims","country":"France"}},"date":"1960-07-03"},{"season":"1960","round":"7","url":"https://en.wikipedia.org/wiki/1960_British_Grand_Prix","raceName":"British Grand Prix","Circuit":{"circuitId":"silverstone","url":"https://en.wikipedia.org/wiki/Silverstone_Circuit","circuitName":"Silverstone Circuit","Location":{"lat":"52.0786","long":"-1.01694","locality":"Silverstone","country":"UK"}},"date":"1960-07-16"},{"season":"1960","round":"8","url":"https://en.wikipedia.org/wiki/1960_Portuguese_Grand_Prix","raceName":"Portuguese Grand Prix","Circuit":{"circuitId":"boavista","url":"https://en.wikipedia.org/wiki/Circuito_da_Boavista","circuitName":"Circuito da Boavista","Location":{"lat":"41.1705","long":"-8.67325","locality":"Oporto","country":"Portugal"}},"date":"1960-08-14"},{"season":"1960","round":"9","url":"https://en.wikipedia.org/wiki/1960_Italian_Grand_Prix","raceName":"Italian Grand Prix","Circuit":{"circuitId":"monza","url":"https://en.wikipedia.org/wiki/Monza_Circuit","circuitName":"Autodromo Nazionale di Monza","Location":{"lat":"45.6156","long":"9.28111","locality":"Monza","country":"Italy"}},"date":"1960-09-04"},{"season":"1960","round":"10","url":"https://en.wikipedia.org/wiki/1960_United_States_Grand_Prix","raceName":"United States Grand Prix","Circuit":{"circuitId":"riverside","url":"https://en.wikipedia.org/wiki/Riverside_International_Raceway","circuitName":"Riverside International Raceway","Location":{"lat":"33.937","long":"-117.273","locality":"California","country":"USA"}},"date":"1960-11-20"}]}}}